City,Latitude,Longitude,Temperature,Humidity,Pressure,Wind Speed,Cloudiness
port alfred,-33.59,26.89,15.56,89,1015,3.3,0
atuona,-9.8,-139.03,27.8,79,1011,7.82,2
vaini,-21.2,-175.2,27.0,74,1013,5.1,20
punta arenas,-53.15,-70.92,7.89,87,1011,6.7,20
rikitea,-23.12,-134.97,26.06,84,1013,6.75,100
albany,42.6,-73.97,11.93,76,1006,0.89,88
mataura,-46.19,168.86,14.06,70,996,1.49,100
hermanus,-34.42,19.23,13.89,93,1015,2.5,0
chuy,-33.7,-53.46,11.87,93,1019,3.39,7
soyo,-6.13,12.37,25.7,89,1012,1.5,88
rockland,41.17,-74.05,14.78,72,1007,0.45,62
yellowknife,62.46,-114.35,4.43,64,1017,2.6,40
hobart,-42.88,147.33,13.23,58,989,8.7,75
camacha,33.08,-16.33,18.0,82,1022,1.5,40
caramay,10.18,119.24,30.35,67,1010,4.77,99
atherton,53.52,-2.49,7.33,87,1005,0.89,14
omsukchan,62.53,155.8,-2.02,84,1012,3.32,72
jamestown,42.1,-79.24,6.0,93,1017,2.6,20
port lincoln,-34.73,135.87,16.49,70,1020,9.17,47
unguia,8.04,-77.09,25.26,87,1013,1.69,100
ushuaia,-54.8,-68.3,7.0,70,1015,1.5,75
talnakh,69.49,88.4,-6.0,67,1014,3.0,37
thompson,55.74,-97.86,2.0,69,1013,5.7,90
lebu,-37.62,-73.65,12.28,85,1017,2.03,100
lydenburg,-25.1,30.46,8.94,91,1049,0.4,0
nikolskoye,59.7,30.79,1.62,69,1013,5.0,96
naze,28.37,129.48,22.0,88,1015,5.7,75
honiara,-9.43,159.95,32.0,75,1007,6.7,20
souillac,-20.52,57.52,24.0,78,1018,4.1,75
artesia,33.87,-118.08,20.6,60,1013,3.1,1
george,-33.96,22.46,11.0,100,1015,1.5,40
ixtapa,20.7,-105.2,25.0,78,1014,2.1,5
borsa,47.66,24.66,5.0,87,983,0.99,100
ahuimanu,21.44,-157.84,25.87,57,1018,6.7,75
sovetskiy,61.36,63.58,2.6,83,1011,0.78,87
guadalupe,25.68,-100.25,29.94,40,1012,4.1,5
kishi,9.08,3.85,25.43,67,1010,2.93,65
hamilton,39.18,-84.53,13.57,76,1019,0.83,1
turayf,31.67,38.66,15.0,51,1013,2.6,5
tasiilaq,65.61,-37.64,-3.0,68,1017,2.1,23
sananduva,-27.95,-51.81,11.04,66,1020,1.01,0
north bend,43.41,-124.22,14.72,93,1017,2.1,90
new norfolk,-42.78,147.06,12.15,78,989,2.68,68
egvekinot,66.32,-179.17,-1.67,87,1015,0.74,86
clyde river,70.47,-68.59,-12.0,85,1017,6.2,90
norman wells,65.28,-126.83,5.0,52,1016,3.1,20
necochea,-38.55,-58.74,12.78,83,1026,1.34,40
rodniki,57.11,41.73,1.48,81,1020,1.97,60
darnah,32.77,22.64,16.73,80,1014,7.1,0
avarua,-21.21,-159.78,22.0,88,1013,3.1,100
broome,42.25,-75.83,8.57,93,1012,4.6,90
la plaine,15.33,-61.25,25.37,76,1018,7.4,59
thomaston,32.89,-84.33,15.91,39,1019,2.1,31
bluff,-46.6,168.33,11.75,89,996,1.71,100
collie,-33.37,116.15,20.38,26,1011,3.04,0
taltal,-25.4,-70.48,15.24,77,1016,1.09,24
upernavik,72.79,-56.15,-1.19,91,1013,4.41,100
east wenatchee bench,47.43,-120.28,16.94,18,1015,4.6,40
beira,-19.84,34.84,22.09,88,1019,2.07,4
karatuzskoye,53.61,92.87,15.63,49,1012,8.21,100
nogliki,51.83,143.17,4.13,97,989,2.92,100
mahebourg,-20.41,57.7,24.0,78,1018,4.1,75
rawson,-43.3,-65.1,12.82,76,1021,8.62,80
fethiye,36.62,29.12,12.0,100,1010,2.1,49
salalah,17.02,54.09,28.0,94,1009,2.1,75
castro,-24.79,-50.01,14.94,69,1018,1.58,24
klaksvik,62.23,-6.59,5.0,80,1008,3.1,88
rumoi,43.93,141.64,16.28,68,1003,5.98,46
fairbanks,64.84,-147.72,8.79,25,1013,4.1,1
port elizabeth,-33.92,25.57,11.0,87,1016,2.1,30
aykhal,66.0,111.5,-6.0,62,1014,3.0,20
manuel roxas,6.45,124.67,31.0,62,1011,1.0,75
alvorada,-12.48,-49.12,21.7,78,1016,0.74,94
port hardy,50.7,-127.42,12.0,58,1012,7.2,75
bathsheba,13.22,-59.52,27.0,74,1018,9.3,40
ankpa,7.37,7.63,23.33,83,1011,3.0,59
kahului,20.89,-156.47,23.53,61,1018,10.3,40
kedrovyy,56.17,91.82,11.0,76,1003,5.0,40
lorengau,-2.02,147.27,29.11,78,1007,3.3,89
east london,-33.02,27.91,18.96,45,1019,3.58,0
srednekolymsk,67.45,153.68,0.67,93,1009,1.14,84
beringovskiy,63.05,179.32,-2.9,95,1015,4.57,91
qaanaaq,77.48,-69.36,-9.93,89,1013,0.66,92
lavrentiya,65.58,-171.0,-1.92,94,1016,2.86,61
rio grande,-32.03,-52.1,13.33,96,1019,0.45,34
kapaa,22.08,-159.32,25.54,74,1020,8.2,40
goundi,9.36,17.37,27.62,57,1008,2.47,87
bambous virieux,-20.34,57.76,23.42,78,1018,4.1,75
khatanga,71.97,102.5,-8.46,96,1018,4.05,100
ponta delgada,37.73,-25.67,17.0,93,1009,8.7,40
steinkjer,64.19,11.39,6.67,66,1002,4.47,100
noumea,-22.28,166.46,29.31,55,1010,3.6,16
asau,46.43,26.4,10.56,81,1003,2.32,99
vardo,70.37,31.11,1.91,82,1013,4.43,38
san cristobal,7.77,-72.22,19.77,60,1016,1.08,92
hithadhoo,-0.6,73.08,29.49,75,1010,5.17,76
anakapalle,17.68,83.02,27.0,78,1010,1.5,40
busselton,-33.65,115.33,21.06,26,1011,5.54,17
chokurdakh,70.63,147.92,-5.69,97,1009,4.01,100
ahipara,-35.17,173.17,20.67,64,1016,7.49,73
nanortalik,60.14,-45.24,1.62,86,1018,0.4,100
joshimath,30.57,79.57,17.19,15,1018,1.26,23
kez,57.9,53.72,0.84,79,1017,3.43,0
port-gentil,-0.72,8.78,27.28,86,1011,6.27,100
nandu,22.85,110.82,29.5,55,1011,2.8,20
yangliuqing,39.14,117.0,28.0,51,1004,3.0,0
guhagar,17.48,73.19,29.61,66,1011,3.49,21
pevek,69.7,170.31,-1.63,93,1013,4.45,0
la libertad,-2.23,-80.9,24.12,78,1013,1.87,78
lata,40.16,-8.33,15.83,95,1021,0.77,100
waingapu,-9.66,120.26,29.56,66,1010,5.6,64
goderich,43.75,-81.72,5.01,84,1015,1.64,72
salta,-24.79,-65.41,16.0,82,1026,2.6,75
yumen,40.28,97.2,18.7,15,1010,3.69,100
berbera,10.44,45.01,30.5,70,1010,1.27,47
hami,42.8,93.45,23.87,18,1010,2.48,93
amapa,1.0,-52.0,23.02,94,1015,0.95,100
camocim,-2.9,-40.84,24.85,90,1014,1.87,100
ketchikan,55.34,-131.65,9.61,76,1011,2.6,90
ibotirama,-12.19,-43.22,22.34,74,1017,1.02,71
pasighat,28.07,95.33,29.14,47,1014,1.32,0
ouadda,8.08,22.4,20.58,76,1011,1.39,96
bethel,41.37,-73.41,12.67,94,1005,1.79,44
gao,16.64,1.64,29.02,12,1007,2.47,26
victoria,22.29,114.16,26.75,69,1012,2.1,20
ikovka,55.61,64.94,8.78,65,1012,3.88,100
dicabisagan,17.08,122.42,30.34,60,1011,2.75,5
mugur-aksy,50.35,90.5,7.79,23,1017,2.21,0
faya,18.39,42.45,17.0,59,1023,1.11,2
cape town,-33.93,18.42,15.45,100,1017,1.0,0
muros,42.78,-9.06,16.67,89,1018,6.26,100
kavieng,-2.57,150.8,27.58,83,1007,5.63,100
zyryanka,65.75,150.85,0.64,90,1008,1.84,99
dikson,73.51,80.55,-7.87,96,1016,4.77,99
butaritari,3.07,172.79,28.58,80,1006,7.68,44
provideniya,64.38,-173.3,0.62,81,1014,3.54,11
nelson bay,-32.72,152.15,18.94,42,1005,17.0,0
jadu,31.95,12.03,17.3,32,1017,4.38,0
aguimes,27.91,-15.45,18.7,77,1020,8.7,75
sitka,57.05,-135.33,12.0,46,1010,4.1,90
laguna,38.42,-121.42,21.6,38,1015,7.2,1
pangnirtung,66.15,-65.71,-5.75,92,1010,1.05,93
bandarbeyla,9.49,50.81,28.82,77,1010,3.42,50
westport,41.14,-73.36,13.59,77,1006,2.1,90
namatanai,-3.67,152.43,28.94,76,1006,2.0,80
sarakhs,36.54,61.16,18.0,88,1012,2.1,75
gulmarg,34.05,74.39,8.97,41,1015,2.19,96
kruisfontein,-34.0,24.73,16.52,35,1016,3.98,68
cabo san lucas,22.89,-109.91,29.82,16,1014,5.1,5
morro bay,35.37,-120.85,15.93,62,1009,1.34,0
cuiluan,47.72,128.65,17.45,36,1003,5.3,90
loa janan,-0.58,117.09,31.46,68,1008,0.68,33
cherskiy,68.75,161.3,0.59,95,1011,4.93,12
rio gallegos,-51.62,-69.22,10.0,66,1010,4.6,100
emiliano zapata,18.83,-99.18,22.42,51,1030,4.1,40
poum,-20.23,164.02,26.09,82,1010,8.74,3
vila franca do campo,37.72,-25.43,17.0,93,1009,8.7,40
hilo,19.73,-155.09,23.88,61,1019,4.1,90
saint-philippe,-21.36,55.77,19.81,68,1017,3.1,74
carnarvon,-24.87,113.63,28.0,15,1016,5.1,0
garden city,42.33,-83.33,13.09,54,1017,2.1,90
soto la marina,23.77,-98.22,25.0,80,1014,5.36,0
barrow,71.29,-156.79,-5.0,79,1020,2.1,90
innisfail,-17.53,146.03,25.56,52,1013,0.89,43
baymak,52.59,58.32,12.26,46,1015,4.12,31
los llanos de aridane,28.66,-17.92,20.0,68,1021,4.6,90
berlevag,70.86,29.09,-0.51,93,1012,5.31,31
severo-kurilsk,50.68,156.12,6.34,83,1010,5.1,78
narsaq,60.92,-46.05,2.0,69,1017,2.6,100
bella union,-30.28,-57.6,13.95,71,1022,2.19,0
saint george,37.1,-113.58,28.75,12,1009,3.1,1
nome,64.5,-165.41,3.95,64,1014,4.6,1
vestmannaeyjar,63.44,-20.27,4.15,72,1012,4.38,0
luderitz,-26.65,15.16,18.35,56,1016,3.66,22
alice springs,-23.7,133.88,17.0,36,1023,7.7,0
karabash,55.48,60.22,11.5,61,1010,3.64,100
bredasdorp,-34.53,20.04,9.0,93,1016,1.0,33
kemijarvi,66.71,27.43,-1.37,95,1014,2.08,75
noyabrsk,63.2,75.45,0.44,95,1007,2.01,100
bambanglipuro,-7.95,110.28,29.62,66,1010,3.78,97
georgetown,5.41,100.34,28.21,83,1010,1.5,20
bilma,18.69,12.92,28.51,13,1009,9.3,0
lagoa,39.05,-27.98,16.41,77,1005,13.93,2
rock sound,24.9,-76.2,25.32,79,1018,6.59,99
saskylakh,71.92,114.08,-10.17,94,1016,3.29,85
boa vista,2.82,-60.67,29.0,70,1013,2.6,75
stornoway,58.21,-6.39,5.23,93,1005,2.6,20
salvador,13.83,-88.92,22.47,94,1013,2.6,78
yubari,43.04,141.96,15.58,100,1004,6.2,75
touros,-5.2,-35.46,25.0,100,1015,2.1,40
hasaki,35.73,140.83,27.07,53,1013,3.6,20
finschhafen,-6.6,147.87,29.75,71,1007,3.46,34
half moon bay,37.46,-122.43,16.0,71,1019,3.1,1
cayenne,4.93,-52.33,26.0,100,1015,6.2,100
faanui,-16.48,-151.75,28.36,71,1011,4.21,18
anadyr,64.75,177.48,-5.0,85,1014,3.0,100
sistranda,63.73,8.83,5.0,93,999,2.1,75
cap malheureux,-19.98,57.61,22.78,77,1018,2.24,100
nishihara,26.18,127.76,21.42,84,1013,9.8,90
quatre cocos,-20.21,57.76,23.36,78,1018,4.1,75
tyazhinskiy,56.12,88.52,9.55,57,1006,9.56,58
geraldton,-28.77,114.6,26.0,19,1016,11.3,1
maracacume,-2.04,-45.96,22.64,96,1015,1.15,100
grand gaube,-20.01,57.66,22.78,77,1018,2.24,100
manono,-7.3,27.42,20.23,78,1014,1.22,36
freeport,40.66,-73.58,15.03,72,1007,1.5,90
codrington,-38.27,141.97,11.16,73,1011,10.14,100
vila velha,-20.33,-40.29,21.18,94,1018,1.5,0
redlands,34.06,-117.18,22.24,52,1008,1.79,0
varzea alegre,-5.35,-40.38,21.94,86,1015,0.83,99
tilichiki,60.47,166.1,-2.09,95,1016,0.94,10
sur,22.57,59.53,31.9,50,1010,4.18,0
ostrovnoy,68.05,39.51,-6.31,93,1017,2.54,1
okha,53.57,142.95,3.46,97,987,4.79,100
sitamau,24.02,75.35,34.69,14,1009,5.98,0
korop,51.57,32.96,7.21,93,1008,3.79,51
mar del plata,-38.0,-57.56,14.29,87,1025,2.6,75
cambridge,43.36,-80.31,10.19,66,1016,2.6,1
galle,6.04,80.22,29.7,75,1010,4.25,38
deputatskiy,69.3,139.9,-7.42,88,1010,1.01,97
bilibino,68.05,166.44,-1.18,88,1014,1.41,0
lasa,46.62,10.7,6.11,100,924,3.04,55
longyearbyen,78.22,15.64,-5.0,79,1013,2.6,75
beisfjord,68.38,17.6,2.0,59,1008,6.2,96
ratnagiri,16.98,73.3,29.34,71,1011,4.03,16
andenes,69.31,16.12,1.0,86,1008,3.1,43
bandiagara,14.35,-3.61,31.62,11,1008,3.86,44
contamana,-7.33,-75.02,23.5,92,1015,0.59,68
zhigansk,66.77,123.37,-2.85,92,1013,4.56,100
abomey-calavi,6.45,2.36,26.86,85,1011,2.63,94
sao filipe,14.9,-24.5,25.39,59,1014,3.81,2
tougue,11.47,-11.6,25.93,49,1012,2.2,72
arraias,-12.93,-46.94,19.3,72,1017,1.76,5
laksham,23.25,91.14,29.7,60,1010,1.36,0
hofn,64.25,-15.21,1.9,80,1013,3.07,100
opuwo,-18.06,13.84,16.75,37,1016,1.39,0
san patricio,19.22,-104.7,23.59,67,1015,2.49,13
sibiti,-3.68,13.35,20.89,82,1013,0.44,99
merritt island,28.54,-80.67,19.04,72,1018,1.84,1
robertsport,6.75,-11.37,27.27,85,1012,2.06,84
jalu,29.03,21.55,16.34,61,1016,4.35,0
richards bay,-28.78,32.04,16.65,71,1022,1.77,100
zhuhai,22.28,113.57,26.46,83,1012,3.1,20
marrakesh,31.63,-8.01,19.0,63,1019,2.6,0
praya,14.92,-23.51,24.0,53,1015,4.1,15
coquimbo,-29.95,-71.34,12.0,93,1016,2.6,22
sechura,-5.56,-80.82,23.57,70,1015,6.48,20
gympie,-26.19,152.66,19.44,49,1013,0.89,0
sola,-13.88,167.55,28.09,79,1008,6.94,1
arraial do cabo,-22.97,-42.03,23.04,82,1017,0.94,27
torrington,41.8,-73.12,12.36,93,1006,1.79,98
tonantins,-2.87,-67.8,23.87,95,1014,0.75,98
mnogovershinnyy,53.94,139.92,0.65,79,989,3.16,98
kaitangata,-46.28,169.85,16.11,52,994,0.89,100
nagato,34.38,131.2,20.26,77,1015,5.1,75
sandovo,58.46,36.41,1.07,82,1019,2.52,38
petropavl,54.88,69.16,11.42,52,1016,2.87,1
leningradskiy,69.38,178.42,-0.69,94,1015,3.23,5
college,64.86,-147.8,8.67,26,1013,5.1,75
haines junction,60.75,-137.51,4.73,53,1013,1.74,57
qarchak,35.44,51.57,14.04,54,1014,2.1,20
sulingen,52.68,8.8,7.34,100,1001,3.6,1
torbay,47.67,-52.73,5.57,35,1023,7.2,40
tuktoyaktuk,69.45,-133.04,-4.0,73,1018,3.1,40
west wendover,40.74,-114.07,21.0,26,1016,2.1,90
port blair,11.67,92.75,29.88,65,1009,3.14,66
arlit,18.74,7.39,30.06,11,1008,2.84,0
inhambane,-23.86,35.38,20.27,86,1020,3.28,4
lucea,18.45,-78.17,24.61,78,1017,1.0,20
karratha,-20.74,116.85,28.61,18,1015,7.99,0
lima,-12.04,-77.03,21.0,83,1015,4.1,93
xifeng,42.74,124.72,27.07,38,1004,9.78,63
santa rosalia,27.32,-112.28,26.13,34,1011,1.15,49
padang,-0.95,100.35,27.16,71,1011,1.44,99
plettenberg bay,-34.05,23.37,18.71,39,1016,2.22,32
saint-pierre,-21.34,55.48,19.09,68,1017,3.1,94
khandyga,62.67,135.6,3.11,71,1003,3.97,60
cockburn town,21.46,-71.14,26.74,81,1017,6.08,24
del rio,29.36,-100.9,30.71,22,1011,3.6,1
zheleznodorozhnyy,55.75,38.0,2.01,80,1017,1.0,0
anuradhapura,8.36,80.42,29.16,74,1010,3.14,4
riyadh,24.69,46.72,25.0,44,1011,2.1,2
sousa,-6.76,-38.23,22.82,82,1015,1.42,35
erzin,36.96,36.2,13.33,96,1008,0.89,2
arman,59.7,150.17,2.05,80,1006,13.31,100
rio hondo,15.07,-89.58,22.14,68,1018,1.28,59
santa maria,-29.68,-53.81,12.31,74,1020,0.34,0
carmen,18.63,-91.83,28.0,69,1015,6.7,40
seeboden,46.82,13.49,4.94,95,1002,0.89,94
ribeira grande,38.52,-28.7,16.28,77,1006,12.48,32
kabanjahe,3.1,98.49,26.0,88,1010,1.38,75
kaeo,-35.1,173.78,19.73,86,1018,4.47,97
lamar,33.67,-95.58,21.62,68,1013,4.6,1
batagay,67.63,134.63,-4.08,89,1010,1.59,100
ponta do sol,32.67,-17.1,15.91,68,1022,2.6,40
stavrovo,56.13,40.01,1.78,80,1019,2.86,60
kununurra,-15.77,128.73,26.0,19,1015,6.7,90
esperance,-33.87,121.9,17.0,51,1024,8.7,97
inta,66.03,60.17,-0.42,98,1010,1.76,81
gornopravdinsk,60.05,69.9,4.76,80,1011,2.23,97
rassvet,46.83,40.75,13.27,74,1010,2.29,56
byron bay,-28.65,153.62,20.19,42,1010,9.3,0
beloha,-25.17,45.05,20.43,79,1017,1.07,75
lompoc,34.64,-120.46,15.31,59,1017,6.7,1
marneuli,41.48,44.81,15.0,82,1011,2.1,40
qasigiannguit,68.82,-51.19,-1.0,92,1015,4.1,99
shelburne,44.08,-80.2,5.44,86,1015,1.0,1
robinson,31.47,-97.11,23.85,53,1013,4.6,5
yar-sale,66.83,70.83,-2.53,98,1010,3.19,100
campbell river,50.02,-125.24,12.66,54,1014,5.1,75
takoradi,4.88,-1.76,26.49,88,1011,2.08,100
makakilo city,21.35,-158.09,27.27,57,1019,3.6,90
aquiraz,-3.9,-38.39,26.0,88,1014,2.1,83
saldanha,-33.01,17.94,11.0,87,1016,0.5,0
pangkalanbuun,-2.68,111.62,33.02,55,1009,1.33,38
chumikan,54.72,135.31,0.1,97,991,0.8,100
tondano,1.3,124.91,32.0,55,1009,1.0,20
katsuura,35.13,140.3,24.27,60,1013,6.7,0
zhangye,38.93,100.45,22.05,17,1008,2.92,50
yerbogachen,61.28,108.01,4.66,52,1021,1.42,0
kifri,34.7,44.97,21.22,36,1010,4.58,33
vyartsilya,62.18,30.69,1.2,81,1016,3.23,89
saint anthony,45.02,-93.22,22.38,40,1003,3.1,40
surt,31.21,16.59,16.98,71,1018,0.51,0
puerto ayora,-0.74,-90.35,25.56,89,1012,2.24,6
tiznit,29.58,-9.5,21.07,44,1017,0.7,0
samfya,-11.36,29.56,18.12,64,1017,3.76,69
xining,36.62,101.77,20.87,9,1008,0.31,0
chany,55.31,76.76,8.45,75,1016,5.09,64
salamanca,40.83,-6.0,11.06,93,1023,3.1,100
bengkulu,-3.8,102.27,26.36,83,1011,2.87,100
berdigestyakh,62.1,126.7,-0.69,84,1012,5.49,80
kargasok,59.06,80.86,5.12,79,1008,6.01,100
matagami,49.75,-77.63,1.0,80,1012,1.5,1
huarmey,-10.07,-78.15,21.28,78,1019,3.17,96
constitucion,-35.33,-72.42,12.78,81,1018,3.67,100
alofi,-19.06,-169.92,25.0,88,1009,7.7,78
praia da vitoria,38.73,-27.07,17.0,77,1005,12.02,40
nemuro,43.32,145.57,11.0,93,1002,4.6,75
panji,-7.73,114.1,30.98,57,1010,0.36,100
vakhrushi,58.68,50.03,0.28,88,1019,2.46,2
tshikapa,-6.42,20.8,21.77,81,1013,0.23,85
bodden town,19.28,-81.25,26.5,75,1018,0.45,0
panaba,21.28,-88.27,22.99,84,1018,3.84,2
ekhabi,53.51,142.97,3.72,97,987,4.81,100
harper,4.38,-7.72,26.9,88,1011,2.1,86
san rafael del sur,11.85,-86.44,28.63,60,1013,4.42,100
brackenheim,49.08,9.06,8.15,97,1010,4.4,12
kenai,60.55,-151.26,10.26,43,1014,5.1,90
guia de isora,28.21,-16.78,17.59,72,1020,7.7,75
nileshwar,12.25,75.1,29.21,77,1011,3.35,71
mackay,-21.15,149.2,24.63,38,1015,6.2,85
aktau,43.65,51.2,11.0,76,1012,3.0,22
strezhevoy,60.73,77.59,2.0,80,1007,4.0,75
gaoual,11.75,-13.2,26.59,64,1012,1.58,1
omboue,-1.57,9.26,25.68,90,1011,3.0,99
arkhangelsk,64.54,40.54,-5.0,92,1020,1.37,40
damghan,36.17,54.35,17.54,32,1011,0.83,0
guerrero negro,27.98,-114.06,17.85,81,1012,6.5,2
san andres,12.58,-81.7,28.0,74,1015,3.6,40
porbandar,21.64,69.61,28.88,71,1010,4.57,0
adrar,20.5,-10.07,27.91,13,1014,3.4,0
pulandian,39.4,121.97,20.0,64,1008,6.0,0
seymchan,62.88,152.43,0.13,86,1009,2.07,100
kalaleh,37.38,55.49,11.0,93,1009,1.07,0
kysyl-syr,63.9,122.76,-0.63,89,1013,4.2,100
aksarka,66.56,67.8,-4.56,98,1011,3.02,100
ternate,0.8,127.4,29.55,67,1008,3.2,73
waddan,29.16,16.14,16.0,32,1019,2.04,4
misratah,32.38,15.09,18.95,55,1018,2.21,0
seoul,37.57,126.98,20.99,83,1013,2.63,90
kulevcha,46.03,29.94,11.71,88,1006,3.17,1
abha,18.22,42.51,17.07,59,1023,0.91,0
gudur,14.13,79.85,29.0,79,1008,3.6,40
cidreira,-30.18,-50.21,15.75,79,1018,3.4,4
tuatapere,-46.13,167.68,13.07,89,996,0.92,100
rocha,-34.48,-54.33,11.19,93,1020,3.39,1
comodoro rivadavia,-45.87,-67.5,12.0,71,1018,3.1,100
san vicente,-26.62,-54.13,14.17,85,1019,0.89,78
salamiyah,35.01,37.05,12.72,81,1011,3.81,0
kodiak,57.79,-152.41,8.0,61,1013,4.1,75
drexel heights,32.14,-111.03,32.21,9,1013,5.7,1
trairi,-3.28,-39.27,24.68,94,1014,2.46,53
cleveland,41.5,-81.7,8.3,76,1018,3.1,1
general roca,-39.03,-67.58,10.0,57,1022,2.1,38
samarai,-10.62,150.67,28.66,78,1008,6.17,9
ariquemes,-9.91,-63.04,23.2,84,1015,1.0,89
hambantota,6.12,81.12,29.15,76,1010,3.77,44
urumqi,43.8,87.6,18.0,45,1018,2.0,2
bhadrachalam,17.67,80.88,32.55,54,1009,3.35,23
nchelenge,-9.35,28.73,19.81,69,1016,3.03,62
craig,40.52,-107.55,14.0,44,1017,12.3,40
krasnoselkup,65.7,82.47,-0.65,97,1009,5.05,0
shahr-e babak,30.12,55.12,15.89,40,1015,2.46,3
hobyo,5.35,48.53,28.79,74,1011,7.57,100
bowen,-20.02,148.23,26.41,33,1014,5.7,78
mirabela,-16.26,-44.16,16.2,63,1019,1.41,0
carutapera,-1.2,-46.02,24.24,94,1014,2.97,100
country club,25.95,-80.32,23.38,64,1018,1.5,1
hualmay,-11.1,-77.61,20.64,78,1019,3.01,90
goreloye,52.94,41.5,6.79,87,1014,3.94,99
biltine,14.53,20.92,25.75,13,1009,3.2,47
exeter,50.72,-3.53,6.98,94,1008,3.07,0
petropavlovsk-kamchatskiy,53.05,158.65,5.0,75,1012,2.0,75
whitehorse,60.72,-135.05,11.0,23,1009,4.1,75
tamandare,-8.76,-35.1,25.79,86,1015,2.76,8
suntar,62.14,117.63,1.15,76,1017,4.77,100
nabire,-3.37,135.48,30.43,65,1007,2.54,19
feodosiya,45.03,35.38,12.61,59,1009,1.42,0
mariental,-24.63,17.97,16.79,19,1020,3.47,0
orlik,52.52,99.83,7.18,32,1016,3.3,70
encruzilhada do sul,-30.54,-52.52,12.07,66,1020,3.31,0
carlsbad,33.16,-117.35,17.75,93,1014,2.2,40
roma,43.21,-75.46,8.07,93,1013,3.6,90
lunas,10.64,123.75,31.0,62,1010,4.1,75
kavaratti,10.57,72.64,29.71,67,1011,4.26,22
vanimo,-2.67,141.3,28.96,76,1007,0.86,99
port-cartier,50.03,-66.87,4.3,100,1002,4.1,90
huesca,42.14,-0.41,13.18,93,1018,3.6,20
vangaindrano,-23.35,47.6,20.81,94,1018,1.45,5
bandarban,22.2,92.23,27.0,83,1009,0.69,75
hastings,50.86,0.57,6.62,88,999,0.89,4
portland,45.52,-122.68,14.33,54,1017,3.1,75
vila,42.03,-8.16,13.33,96,1021,2.68,100
tutzing,47.91,11.28,7.42,87,1008,4.6,83
alekseyevka,50.63,38.69,12.45,70,1011,2.45,59
sao joao da barra,-21.64,-41.05,21.16,93,1018,2.39,0
koungheul,13.98,-14.8,24.98,52,1011,3.93,0
madaoua,14.07,5.96,30.01,33,1008,3.33,0
taksimo,56.34,114.88,4.32,46,1019,1.58,0
pinjaur,30.8,76.92,29.22,34,1011,3.3,66
palasbari,26.14,91.55,27.0,78,1010,2.06,75
dok kham tai,19.16,99.99,31.55,50,1011,0.65,15
igarka,67.47,86.58,-2.93,93,1013,4.72,0
tezu,27.92,96.17,30.41,36,1014,1.46,0
presidencia roque saenz pena,-26.79,-60.44,15.87,92,1021,1.2,98
puerto carreno,6.19,-67.49,28.13,73,1013,2.27,100
juruti,-2.15,-56.09,24.39,95,1014,2.43,98
surab,28.49,66.26,21.4,20,1012,3.29,0
pisco,-13.7,-76.22,20.0,77,1015,5.7,58
sorong,-0.88,131.25,29.94,70,1007,4.58,100
antofagasta,-23.65,-70.4,16.0,77,1016,2.6,90
bud,39.45,-86.18,13.11,54,1017,2.98,40
ballina,-28.87,153.57,20.17,42,1010,9.3,0
grindavik,63.84,-22.43,0.0,83,1013,5.1,40
zemio,5.03,25.14,21.4,81,1011,1.16,100
walvis bay,-22.96,14.51,19.72,46,1015,1.4,0
yuanping,38.72,112.76,32.67,8,1003,1.04,0
minab,27.15,57.08,27.0,57,1007,2.1,0
coihaique,-45.58,-72.07,6.0,93,1012,1.03,94
piacabucu,-10.41,-36.43,25.25,85,1016,0.81,81
fort nelson,58.81,-122.7,14.0,35,1012,1.18,75
houma,29.6,-90.72,19.44,72,1019,2.1,1
bull savanna,17.89,-77.59,24.1,78,1017,2.21,17
ouricuri,-7.88,-40.08,21.57,81,1016,0.94,100
saint-francois,46.42,3.91,12.0,71,1013,0.5,90
ostrow mazowiecka,52.8,21.9,9.44,97,1005,0.89,100
caravelas,-17.71,-39.25,23.76,86,1017,0.92,65
mandurah,-32.55,115.7,22.22,40,1020,0.45,0
sovkhoznyy,45.29,38.11,12.89,58,1007,6.0,99
mecca,21.43,39.83,22.47,29,1011,2.24,0
atambua,-9.11,124.89,28.48,57,1010,0.72,89
mackenzie,55.3,-123.17,14.0,28,1012,4.1,1
lacey,47.03,-122.82,15.09,41,1016,5.7,90
sabzevar,36.21,57.68,19.31,36,1011,0.49,0
furano,43.28,142.47,18.0,72,1002,7.2,75
den helder,52.96,4.76,10.16,76,1001,4.6,90
cassia,-20.58,-46.92,15.91,71,1019,0.36,0
sobolevo,54.43,31.9,6.63,80,1012,4.32,100
borinskoye,52.46,39.37,5.0,100,1012,4.0,90
kudahuvadhoo,2.67,72.89,29.27,77,1010,4.71,0
palmer,42.16,-72.33,11.83,100,1005,1.5,90
broken hill,-31.95,141.43,17.0,59,1017,10.3,40
mitsamiouli,-11.38,43.28,27.03,73,1013,3.44,73
bairiki,1.33,172.98,28.0,83,1005,6.7,75
dubti,11.74,41.09,29.62,55,1010,3.26,100
galesong,-5.32,119.37,31.0,66,1009,1.5,20
sakakah,29.97,40.21,19.0,31,1016,3.6,0
hanstholm,57.12,8.62,7.22,60,999,2.34,98
mahbubnagar,16.73,77.98,32.02,38,1009,4.56,72
mier,26.43,-99.15,29.62,43,1013,5.1,1
ilulissat,69.22,-51.1,-1.0,92,1015,4.1,100
tame,6.46,-71.73,24.35,68,1016,1.42,75
tiksi,71.69,128.87,-7.02,93,1010,4.39,100
alta floresta,-9.88,-56.09,21.76,77,1016,1.36,8
alghero,40.56,8.32,18.0,88,1015,3.6,89
kloulklubed,7.04,134.26,27.0,83,1008,2.6,75
dunedin,-45.87,170.5,13.89,66,982,5.37,100
toora-khem,52.47,96.11,10.98,36,1017,1.63,71
jaguarari,-10.26,-40.2,20.27,72,1017,2.28,89
iqaluit,63.75,-68.51,0.0,93,1007,3.6,90
melfi,41.0,15.65,17.0,59,1009,2.6,90
vanavara,60.34,102.28,6.13,48,1016,3.9,33
sainte-marie,-20.9,55.55,19.19,78,1018,5.7,75
kamenetskiy,54.01,38.22,5.0,70,990,4.99,77
pangody,65.85,74.49,-4.56,97,1009,3.84,91
salinas,36.68,-121.66,16.24,52,1018,4.6,1
mehamn,71.04,27.85,-1.31,95,1012,3.88,42
port augusta,-32.5,137.77,15.37,68,1020,7.7,28
siavonga,-16.54,28.71,21.27,52,1019,2.35,23
irtyshskiy,58.33,68.13,7.24,73,1013,2.69,18
gurlan,41.84,60.39,17.0,59,1010,3.1,84
goure,13.98,10.27,25.65,51,1007,5.19,13
mazamari,-11.33,-74.53,20.99,68,1021,1.02,79
margate,51.38,1.39,6.85,84,1007,0.89,26
buala,-8.14,159.59,30.72,68,1006,3.6,65
san juan,-31.54,-68.54,16.89,38,1021,1.68,0
ibra,22.69,58.53,28.46,47,1011,0.8,55
bangkalan,-7.05,112.74,30.02,65,1010,1.3,95
jumla,29.27,82.18,14.44,80,1018,1.34,31
san quintin,30.48,-115.95,17.89,84,1012,4.47,0
iquitos,-3.75,-73.25,25.0,94,1014,3.1,75
gorontalo,0.54,123.06,29.35,69,1009,2.05,93
komsomolskiy,40.43,71.72,19.0,59,1012,2.1,23
tura,25.52,90.22,30.94,38,1010,0.56,0
libreville,0.39,9.45,26.23,88,1011,2.52,98
the pas,53.83,-101.25,1.0,86,1007,5.7,90
bokovskaya,49.23,41.83,12.68,77,1011,1.09,0
kirakira,-10.45,161.92,29.82,73,1007,4.16,85
eganville,45.53,-77.1,5.6,75,1012,1.5,40
batemans bay,-35.72,150.18,12.35,70,928,3.13,0
chinacota,7.61,-72.6,18.51,52,1016,1.97,89
ancud,-41.87,-73.82,12.65,100,1012,4.6,90
kudat,6.88,116.85,30.0,74,1010,2.6,75
nayoro,44.35,142.46,15.48,73,1002,6.46,90
ephrata,40.18,-76.18,13.53,58,1011,4.6,20
wencheng,33.06,113.8,30.85,41,1003,3.11,0
san policarpo,12.18,125.51,28.6,82,1009,3.46,98
zaragoza,41.66,-0.88,16.0,82,1018,2.1,20
mtimbira,-8.78,36.35,21.38,85,1017,0.6,62
aars,56.8,9.51,6.88,96,999,1.68,100
la ronge,55.1,-105.28,2.0,100,1014,2.1,90
mayo,38.89,-76.51,13.91,54,1012,3.6,1
ko samui,9.54,99.94,31.0,74,1011,1.5,20
santa barbara,34.42,-119.7,22.88,27,1013,8.2,1
venado tuerto,-33.75,-61.97,9.44,79,1015,1.44,0
xai-xai,-25.05,33.64,19.94,81,1021,2.16,15
mayna,54.11,47.62,4.03,81,1016,6.07,98
aberystwyth,52.42,-4.08,4.3,93,1006,5.01,2
derzhavinsk,51.1,66.32,15.46,41,1017,3.61,16
vung tau,10.35,107.08,29.85,68,1010,6.25,91
tarko-sale,64.92,77.78,-0.85,97,1008,4.38,13
poli,-3.33,36.8,13.76,61,1017,0.85,64
port macquarie,-31.43,152.92,20.84,40,1006,1.79,0
rincon,32.3,-81.24,14.93,59,1018,1.5,1
killam,52.78,-111.85,11.11,38,1007,1.34,29
svetlogorsk,52.63,29.73,8.85,88,1008,3.22,94
enid,36.4,-97.88,23.67,77,1008,3.6,1
castanhal,-1.29,-47.93,25.0,94,1015,1.0,40
bonavista,48.65,-53.11,5.0,53,1019,1.34,88
bouna,9.27,-3.0,26.46,66,1011,1.81,21
wau,7.7,28.0,24.44,64,1010,2.6,81
soavinandriana,-19.17,46.73,12.39,64,1019,1.66,19
tadine,-21.55,167.88,26.27,75,1012,6.09,8
grants,35.15,-107.85,19.0,13,1020,4.1,1
eureka,40.8,-124.16,14.88,81,1015,1.34,23
turukhansk,65.82,87.98,1.57,81,1011,6.17,0
imbituba,-28.24,-48.67,20.0,77,1018,1.5,75
paamiut,61.99,-49.67,1.37,87,1015,6.93,100
